{"type": "FeatureCollection", "features": [{"type": "Feature", "properties": {"district": "Ariyalur", "nightlights": 1.623}, "geometry": {"type": "Point", "coordinates": [79.2439, 11.1624]}}, {"type": "Feature", "properties": {"district": "Sivaganga", "nightlights": 0.969}, "geometry": {"type": "Point", "coordinates": [78.602, 9.9149]}}, {"type": "Feature", "properties": {"district": "Thanjavur", "nightlights": 1.407}, "geometry": {"type": "Point", "coordinates": [79.2444, 10.6683]}}, {"type": "Feature", "properties": {"district": "Tiruvannamalai", "nightlights": 1.104}, "geometry": {"type": "Point", "coordinates": [79.1686, 12.4338]}}, {"type": "Feature", "properties": {"district": "Ramanathapuram", "nightlights": 0.862}, "geometry": {"type": "Point", "coordinates": [78.6918, 9.4325]}}, {"type": "Feature", "properties": {"district": "Tirunelveli", "nightlights": 1.66}, "geometry": {"type": "Point", "coordinates": [77.6, 8.5731]}}, {"type": "Feature", "properties": {"district": "Virudhunagar", "nightlights": 1.313}, "geometry": {"type": "Point", "coordinates": [77.9097, 9.4916]}}, {"type": "Feature", "properties": {"district": "Thiruvarur", "nightlights": 1.219}, "geometry": {"type": "Point", "coordinates": [79.5366, 10.6811]}}, {"type": "Feature", "properties": {"district": "Thiruvallur", "nightlights": 4.475}, "geometry": {"type": "Point", "coordinates": [79.9447, 13.2397]}}, {"type": "Feature", "properties": {"district": "Tiruchirappalli", "nightlights": 1.822}, "geometry": {"type": "Point", "coordinates": [78.5706, 10.8899]}}, {"type": "Feature", "properties": {"district": "Tiruppur", "nightlights": 1.907}, "geometry": {"type": "Point", "coordinates": [77.4079, 10.8394]}}, {"type": "Feature", "properties": {"district": "Theni", "nightlights": 0.872}, "geometry": {"type": "Point", "coordinates": [77.4404, 9.8922]}}, {"type": "Feature", "properties": {"district": "Salem", "nightlights": 1.768}, "geometry": {"type": "Point", "coordinates": [78.223, 11.6761]}}, {"type": "Feature", "properties": {"district": "Madurai", "nightlights": 1.717}, "geometry": {"type": "Point", "coordinates": [78.0077, 9.9213]}}, {"type": "Feature", "properties": {"district": "Perambalur", "nightlights": 1.276}, "geometry": {"type": "Point", "coordinates": [78.8913, 11.2758]}}, {"type": "Feature", "properties": {"district": "Dindigul", "nightlights": 1.164}, "geometry": {"type": "Point", "coordinates": [77.8209, 10.3914]}}, {"type": "Feature", "properties": {"district": "Karur", "nightlights": 1.392}, "geometry": {"type": "Point", "coordinates": [78.1346, 10.8444]}}, {"type": "Feature", "properties": {"district": "Dharmapuri", "nightlights": 1.125}, "geometry": {"type": "Point", "coordinates": [78.1905, 12.1088]}}, {"type": "Feature", "properties": {"district": "Namakkal", "nightlights": 1.615}, "geometry": {"type": "Point", "coordinates": [78.1368, 11.3178]}}, {"type": "Feature", "properties": {"district": "Cuddalore", "nightlights": 1.688}, "geometry": {"type": "Point", "coordinates": [79.4533, 11.5361]}}, {"type": "Feature", "properties": {"district": "Pudukkottai", "nightlights": 1.037}, "geometry": {"type": "Point", "coordinates": [78.8799, 10.3604]}}, {"type": "Feature", "properties": {"district": "Vellore", "nightlights": 1.603}, "geometry": {"type": "Point", "coordinates": [78.9268, 12.8922]}}, {"type": "Feature", "properties": {"district": "Chennai", "nightlights": 29.473}, "geometry": {"type": "Point", "coordinates": [80.2436, 13.0639]}}, {"type": "Feature", "properties": {"district": "Nagapattinam", "nightlights": 1.146}, "geometry": {"type": "Point", "coordinates": [79.7648, 10.5786]}}, {"type": "Feature", "properties": {"district": "Villupuram", "nightlights": 1.422}, "geometry": {"type": "Point", "coordinates": [79.519, 12.1213]}}, {"type": "Feature", "properties": {"district": "Kanchipuram", "nightlights": 4.528}, "geometry": {"type": "Point", "coordinates": [80.0061, 12.5853]}}, {"type": "Feature", "properties": {"district": "Kanniyakumari", "nightlights": 1.755}, "geometry": {"type": "Point", "coordinates": [77.3633, 8.3076]}}, {"type": "Feature", "properties": {"district": "Tuticorin", "nightlights": 1.508}, "geometry": {"type": "Point", "coordinates": [77.9997, 8.9023]}}, {"type": "Feature", "properties": {"district": "Krishnagiri", "nightlights": 1.923}, "geometry": {"type": "Point", "coordinates": [78.0334, 12.4914]}}, {"type": "Feature", "properties": {"district": "Erode", "nightlights": 1.235}, "geometry": {"type": "Point", "coordinates": [77.4137, 11.5173]}}, {"type": "Feature", "properties": {"district": "Coimbatore", "nightlights": 2.265}, "geometry": {"type": "Point", "coordinates": [76.978, 10.8781]}}, {"type": "Feature", "properties": {"district": "The Nilgiris", "nightlights": 0.623}, "geometry": {"type": "Point", "coordinates": [76.6458, 11.4507]}}, {"type": "Feature", "properties": {"district": "Tirupathur", "nightlights": 1.352}, "geometry": {"type": "Point", "coordinates": [78.6559, 12.5789]}}, {"type": "Feature", "properties": {"district": "Ranipet", "nightlights": 1.88}, "geometry": {"type": "Point", "coordinates": [79.4484, 12.9577]}}, {"type": "Feature", "properties": {"district": "Chengalpattu", "nightlights": 4.692}, "geometry": {"type": "Point", "coordinates": [79.8463, 12.8369]}}, {"type": "Feature", "properties": {"district": "Kallakurichi", "nightlights": 1.064}, "geometry": {"type": "Point", "coordinates": [79.0095, 11.7925]}}, {"type": "Feature", "properties": {"district": "Mayiladuthurai", "nightlights": 1.529}, "geometry": {"type": "Point", "coordinates": [79.7098, 11.1537]}}, {"type": "Feature", "properties": {"district": "Tenkasi", "nightlights": 1.265}, "geometry": {"type": "Point", "coordinates": [77.4558, 9.0841]}}]}